{
"type": "FeatureCollection",
"name": "sbr",
"crs": { "type": "name", "properties": { "name": "urn:ogc:def:crs:OGC:1.3:CRS84" } },
"features": [
{ "type": "Feature", "properties": { "lat": 46.56, "lon": 11.21, "st_name": "Nals_2", "st_id": "3" }, "geometry": { "type": "Point", "coordinates": [ 11.205750000000551, 46.560027700000013 ] } },
{ "type": "Feature", "properties": { "lat": 46.53, "lon": 11.24, "st_name": "Terlan_2", "st_id": "4" }, "geometry": { "type": "Point", "coordinates": [ 11.235944400000607, 46.5318888 ] } },
{ "type": "Feature", "properties": { "lat": 46.54, "lon": 11.24, "st_name": "Terlan_4", "st_id": "5" }, "geometry": { "type": "Point", "coordinates": [ 11.238455700000612, 46.539380800000025 ] } },
{ "type": "Feature", "properties": { "lat": 46.52, "lon": 11.24, "st_name": "Andrian", "st_id": "6" }, "geometry": { "type": "Point", "coordinates": [ 11.240611100000621, 46.521166600000015 ] } },
{ "type": "Feature", "properties": { "lat": 46.46, "lon": 11.28, "st_name": "Girlan_1", "st_id": "7" }, "geometry": { "type": "Point", "coordinates": [ 11.279611100000707, 46.455833300000016 ] } },
{ "type": "Feature", "properties": { "lat": 46.52, "lon": 11.33, "st_name": "Guntschna", "st_id": "8" }, "geometry": { "type": "Point", "coordinates": [ 11.325250000000803, 46.5161388 ] } },
{ "type": "Feature", "properties": { "lat": 46.5, "lon": 11.28, "st_name": "Gries_2", "st_id": "9" }, "geometry": { "type": "Point", "coordinates": [ 11.280277700000703, 46.5013333 ] } },
{ "type": "Feature", "properties": { "lat": 46.49, "lon": 11.31, "st_name": "Gries_1", "st_id": "10" }, "geometry": { "type": "Point", "coordinates": [ 11.305805500000762, 46.4860555 ] } },
{ "type": "Feature", "properties": { "lat": 46.5, "lon": 11.25, "st_name": "Unterrain_2", "st_id": "12" }, "geometry": { "type": "Point", "coordinates": [ 11.248583300000636, 46.500444400000013 ] } },
{ "type": "Feature", "properties": { "lat": 46.53, "lon": 11.24, "st_name": "Terlan_1", "st_id": "13" }, "geometry": { "type": "Point", "coordinates": [ 11.244611100000625, 46.5278055 ] } },
{ "type": "Feature", "properties": { "lat": 46.54, "lon": 11.23, "st_name": "Terlan_3", "st_id": "14" }, "geometry": { "type": "Point", "coordinates": [ 11.228861100000595, 46.5411666 ] } },
{ "type": "Feature", "properties": { "lat": 46.57, "lon": 11.22, "st_name": "Vilpian_2", "st_id": "15" }, "geometry": { "type": "Point", "coordinates": [ 11.220166600000576, 46.567805500000013 ] } },
{ "type": "Feature", "properties": { "lat": 46.48, "lon": 11.29, "st_name": "Frangart", "st_id": "16" }, "geometry": { "type": "Point", "coordinates": [ 11.286722200000717, 46.4804999 ] } },
{ "type": "Feature", "properties": { "lat": 46.39, "lon": 11.26, "st_name": "Kaltern_3", "st_id": "17" }, "geometry": { "type": "Point", "coordinates": [ 11.261833300000678, 46.3909999 ] } },
{ "type": "Feature", "properties": { "lat": 46.51, "lon": 11.26, "st_name": "Siebeneich", "st_id": "18" }, "geometry": { "type": "Point", "coordinates": [ 11.258277700000656, 46.510888799999989 ] } },
{ "type": "Feature", "properties": { "lat": 46.49, "lon": 11.26, "st_name": "Unterrain_1", "st_id": "21" }, "geometry": { "type": "Point", "coordinates": [ 11.26466660000067, 46.494 ] } },
{ "type": "Feature", "properties": { "lat": 46.56, "lon": 11.21, "st_name": "Vilpian_1", "st_id": "22" }, "geometry": { "type": "Point", "coordinates": [ 11.214305500000567, 46.5588055 ] } },
{ "type": "Feature", "properties": { "lat": 46.53, "lon": 11.22, "st_name": "Nals_1", "st_id": "24" }, "geometry": { "type": "Point", "coordinates": [ 11.217805500000575, 46.5326111 ] } },
{ "type": "Feature", "properties": { "lat": 46.72, "lon": 11.2, "st_name": "Saltaus", "st_id": "32" }, "geometry": { "type": "Point", "coordinates": [ 11.199638800000523, 46.7241944 ] } },
{ "type": "Feature", "properties": { "lat": 46.7, "lon": 11.18, "st_name": "Riffian", "st_id": "33" }, "geometry": { "type": "Point", "coordinates": [ 11.182111100000496, 46.6970277 ] } },
{ "type": "Feature", "properties": { "lat": 46.69, "lon": 11.19, "st_name": "Schenna", "st_id": "34" }, "geometry": { "type": "Point", "coordinates": [ 11.192364600000513, 46.6917384 ] } },
{ "type": "Feature", "properties": { "lat": 46.68, "lon": 11.15, "st_name": "Gratsch", "st_id": "35" }, "geometry": { "type": "Point", "coordinates": [ 11.145611100000442, 46.681888800000017 ] } },
{ "type": "Feature", "properties": { "lat": 46.69, "lon": 11.16, "st_name": "D.Tirol_2", "st_id": "36" }, "geometry": { "type": "Point", "coordinates": [ 11.159583300000461, 46.6905833 ] } },
{ "type": "Feature", "properties": { "lat": 46.69, "lon": 11.12, "st_name": "Algund_2", "st_id": "37" }, "geometry": { "type": "Point", "coordinates": [ 11.124000000000413, 46.6855833 ] } },
{ "type": "Feature", "properties": { "lat": 46.67, "lon": 11.14, "st_name": "Algund_1", "st_id": "38" }, "geometry": { "type": "Point", "coordinates": [ 11.144194400000442, 46.6685 ] } },
{ "type": "Feature", "properties": { "lat": 46.69, "lon": 11.1, "st_name": "Plars", "st_id": "39" }, "geometry": { "type": "Point", "coordinates": [ 11.101027700000381, 46.6895 ] } },
{ "type": "Feature", "properties": { "lat": 46.6, "lon": 11.14, "st_name": "Voellan", "st_id": "40" }, "geometry": { "type": "Point", "coordinates": [ 11.142972200000447, 46.5985277 ] } },
{ "type": "Feature", "properties": { "lat": 46.65, "lon": 11.17, "st_name": "Untermais", "st_id": "41" }, "geometry": { "type": "Point", "coordinates": [ 11.170277700000485, 46.6471944 ] } },
{ "type": "Feature", "properties": { "lat": 46.64, "lon": 11.15, "st_name": "Marling", "st_id": "42" }, "geometry": { "type": "Point", "coordinates": [ 11.15394440000046, 46.64175 ] } },
{ "type": "Feature", "properties": { "lat": 46.63, "lon": 11.15, "st_name": "Tscherms", "st_id": "43" }, "geometry": { "type": "Point", "coordinates": [ 11.152111100000457, 46.63008330000001 ] } },
{ "type": "Feature", "properties": { "lat": 46.6, "lon": 11.19, "st_name": "Burgstall", "st_id": "44" }, "geometry": { "type": "Point", "coordinates": [ 11.189972200000518, 46.6023055 ] } },
{ "type": "Feature", "properties": { "lat": 46.58, "lon": 11.2, "st_name": "Gargazon_2", "st_id": "45" }, "geometry": { "type": "Point", "coordinates": [ 11.201305500000542, 46.5769166 ] } },
{ "type": "Feature", "properties": { "lat": 46.57, "lon": 11.2, "st_name": "Prissianer_Auen", "st_id": "46" }, "geometry": { "type": "Point", "coordinates": [ 11.197861100000537, 46.566527700000016 ] } },
{ "type": "Feature", "properties": { "lat": 46.58, "lon": 11.18, "st_name": "Lana_1", "st_id": "47" }, "geometry": { "type": "Point", "coordinates": [ 11.182083300000508, 46.5784444 ] } },
{ "type": "Feature", "properties": { "lat": 46.59, "lon": 11.18, "st_name": "Lana_3", "st_id": "49" }, "geometry": { "type": "Point", "coordinates": [ 11.184749900000513, 46.5943611 ] } },
{ "type": "Feature", "properties": { "lat": 46.61, "lon": 11.18, "st_name": "Lana_5", "st_id": "51" }, "geometry": { "type": "Point", "coordinates": [ 11.178900000000501, 46.614213 ] } },
{ "type": "Feature", "properties": { "lat": 46.67, "lon": 11.19, "st_name": "Obermais", "st_id": "53" }, "geometry": { "type": "Point", "coordinates": [ 11.187277700000507, 46.67025 ] } },
{ "type": "Feature", "properties": { "lat": 46.68, "lon": 11.17, "st_name": "D.Tirol_1", "st_id": "54" }, "geometry": { "type": "Point", "coordinates": [ 11.169944400000482, 46.6812499 ] } },
{ "type": "Feature", "properties": { "lat": 46.57, "lon": 11.19, "st_name": "Gargazon_1", "st_id": "55" }, "geometry": { "type": "Point", "coordinates": [ 11.194500000000529, 46.5738333 ] } },
{ "type": "Feature", "properties": { "lat": 46.66, "lon": 11.18, "st_name": "Hagen", "st_id": "56" }, "geometry": { "type": "Point", "coordinates": [ 11.177333300000495, 46.658416600000017 ] } },
{ "type": "Feature", "properties": { "lat": 46.36, "lon": 11.3, "st_name": "Auer_1", "st_id": "64" }, "geometry": { "type": "Point", "coordinates": [ 11.300305500000768, 46.3579722 ] } },
{ "type": "Feature", "properties": { "lat": 46.45, "lon": 11.32, "st_name": "Bozen_1", "st_id": "66" }, "geometry": { "type": "Point", "coordinates": [ 11.319916600000802, 46.4486111 ] } },
{ "type": "Feature", "properties": { "lat": 46.47, "lon": 11.32, "st_name": "Bozen_2", "st_id": "67" }, "geometry": { "type": "Point", "coordinates": [ 11.322277700000804, 46.4663888 ] } },
{ "type": "Feature", "properties": { "lat": 46.38, "lon": 11.31, "st_name": "Branzoll_1", "st_id": "68" }, "geometry": { "type": "Point", "coordinates": [ 11.30727770000078, 46.3778333 ] } },
{ "type": "Feature", "properties": { "lat": 46.39, "lon": 11.3, "st_name": "Branzoll_2", "st_id": "69" }, "geometry": { "type": "Point", "coordinates": [ 11.303861100000772, 46.3938611 ] } },
{ "type": "Feature", "properties": { "lat": 46.46, "lon": 11.24, "st_name": "Eppan", "st_id": "70" }, "geometry": { "type": "Point", "coordinates": [ 11.243583300000632, 46.4590555 ] } },
{ "type": "Feature", "properties": { "lat": 46.41, "lon": 11.24, "st_name": "Kaltern_4", "st_id": "72" }, "geometry": { "type": "Point", "coordinates": [ 11.241222200000633, 46.4136944 ] } },
{ "type": "Feature", "properties": { "lat": 46.39, "lon": 11.29, "st_name": "Pfatten_4", "st_id": "75" }, "geometry": { "type": "Point", "coordinates": [ 11.293666600000746, 46.3912222 ] } },
{ "type": "Feature", "properties": { "lat": 46.43, "lon": 11.32, "st_name": "Leifers_1", "st_id": "76" }, "geometry": { "type": "Point", "coordinates": [ 11.32266660000081, 46.427555500000011 ] } },
{ "type": "Feature", "properties": { "lat": 46.44, "lon": 11.34, "st_name": "Leifers_2", "st_id": "77" }, "geometry": { "type": "Point", "coordinates": [ 11.34311110000086, 46.441444400000016 ] } },
{ "type": "Feature", "properties": { "lat": 46.45, "lon": 11.33, "st_name": "Leifers_3", "st_id": "78" }, "geometry": { "type": "Point", "coordinates": [ 11.331166600000827, 46.4498888 ] } },
{ "type": "Feature", "properties": { "lat": 46.42, "lon": 11.31, "st_name": "Pfatten_1", "st_id": "80" }, "geometry": { "type": "Point", "coordinates": [ 11.311361100000783, 46.417527700000015 ] } },
{ "type": "Feature", "properties": { "lat": 46.4, "lon": 11.3, "st_name": "Pfatten_2", "st_id": "81" }, "geometry": { "type": "Point", "coordinates": [ 11.301055500000764, 46.40124990000001 ] } },
{ "type": "Feature", "properties": { "lat": 46.48, "lon": 11.27, "st_name": "St.Pauls", "st_id": "84" }, "geometry": { "type": "Point", "coordinates": [ 11.269638800000681, 46.47886110000001 ] } },
{ "type": "Feature", "properties": { "lat": 46.62, "lon": 10.66, "st_name": "Laas_2", "st_id": "90" }, "geometry": { "type": "Point", "coordinates": [ 10.66375, 46.6225833 ] } },
{ "type": "Feature", "properties": { "lat": 46.63, "lon": 10.61, "st_name": "Prad_1", "st_id": "91" }, "geometry": { "type": "Point", "coordinates": [ 10.60916660000006, 46.627499899999989 ] } },
{ "type": "Feature", "properties": { "lat": 46.63, "lon": 10.58, "st_name": "Agums", "st_id": "92" }, "geometry": { "type": "Point", "coordinates": [ 10.582736100000055, 46.627952100000016 ] } },
{ "type": "Feature", "properties": { "lat": 46.64, "lon": 10.59, "st_name": "Schluderns_1", "st_id": "93" }, "geometry": { "type": "Point", "coordinates": [ 10.593143100000056, 46.642836699999989 ] } },
{ "type": "Feature", "properties": { "lat": 46.66, "lon": 10.58, "st_name": "Schluderns_2", "st_id": "94" }, "geometry": { "type": "Point", "coordinates": [ 10.578069, 46.6642192 ] } },
{ "type": "Feature", "properties": { "lat": 46.62, "lon": 10.63, "st_name": "Tschengls_1", "st_id": "95" }, "geometry": { "type": "Point", "coordinates": [ 10.628859400000067, 46.6191726 ] } },
{ "type": "Feature", "properties": { "lat": 46.63, "lon": 10.72, "st_name": "Allitz", "st_id": "96" }, "geometry": { "type": "Point", "coordinates": [ 10.72227, 46.6328478 ] } },
{ "type": "Feature", "properties": { "lat": 46.63, "lon": 10.64, "st_name": "Eyrs", "st_id": "97" }, "geometry": { "type": "Point", "coordinates": [ 10.636777700000069, 46.6295555 ] } },
{ "type": "Feature", "properties": { "lat": 46.62, "lon": 10.76, "st_name": "Goeflan", "st_id": "98" }, "geometry": { "type": "Point", "coordinates": [ 10.761290700000114, 46.6159411 ] } },
{ "type": "Feature", "properties": { "lat": 46.62, "lon": 10.82, "st_name": "Goldrain_1", "st_id": "99" }, "geometry": { "type": "Point", "coordinates": [ 10.815986300000141, 46.6179788 ] } },
{ "type": "Feature", "properties": { "lat": 46.62, "lon": 10.83, "st_name": "Goldrain_2", "st_id": "100" }, "geometry": { "type": "Point", "coordinates": [ 10.83211110000015, 46.6214722 ] } },
{ "type": "Feature", "properties": { "lat": 46.63, "lon": 10.75, "st_name": "Kortsch", "st_id": "101" }, "geometry": { "type": "Point", "coordinates": [ 10.745637400000104, 46.628652 ] } },
{ "type": "Feature", "properties": { "lat": 46.62, "lon": 10.69, "st_name": "Laas_1", "st_id": "102" }, "geometry": { "type": "Point", "coordinates": [ 10.692159500000084, 46.6203921 ] } },
{ "type": "Feature", "properties": { "lat": 46.62, "lon": 10.85, "st_name": "Latsch_1", "st_id": "103" }, "geometry": { "type": "Point", "coordinates": [ 10.847765200000159, 46.6200053 ] } },
{ "type": "Feature", "properties": { "lat": 46.62, "lon": 10.87, "st_name": "Latsch_2", "st_id": "104" }, "geometry": { "type": "Point", "coordinates": [ 10.868171400000168, 46.6209116 ] } },
{ "type": "Feature", "properties": { "lat": 46.61, "lon": 10.86, "st_name": "Latsch_3", "st_id": "105" }, "geometry": { "type": "Point", "coordinates": [ 10.858021900000164, 46.6080442 ] } },
{ "type": "Feature", "properties": { "lat": 46.61, "lon": 10.84, "st_name": "Latsch_4", "st_id": "106" }, "geometry": { "type": "Point", "coordinates": [ 10.837638800000153, 46.60852770000001 ] } },
{ "type": "Feature", "properties": { "lat": 46.65, "lon": 10.57, "st_name": "Lichtenberg", "st_id": "107" }, "geometry": { "type": "Point", "coordinates": [ 10.5725, 46.6453888 ] } },
{ "type": "Feature", "properties": { "lat": 46.61, "lon": 10.81, "st_name": "Morter_1", "st_id": "108" }, "geometry": { "type": "Point", "coordinates": [ 10.805555500000134, 46.61188880000001 ] } },
{ "type": "Feature", "properties": { "lat": 46.62, "lon": 10.81, "st_name": "Morter_2", "st_id": "109" }, "geometry": { "type": "Point", "coordinates": [ 10.805388800000133, 46.6150277 ] } },
{ "type": "Feature", "properties": { "lat": 46.62, "lon": 10.78, "st_name": "Schlanders_1", "st_id": "110" }, "geometry": { "type": "Point", "coordinates": [ 10.780237900000122, 46.6237301 ] } },
{ "type": "Feature", "properties": { "lat": 46.62, "lon": 10.8, "st_name": "Schlanders_2", "st_id": "111" }, "geometry": { "type": "Point", "coordinates": [ 10.804581600000134, 46.622333799999986 ] } },
{ "type": "Feature", "properties": { "lat": 46.64, "lon": 10.97, "st_name": "Staben_1", "st_id": "112" }, "geometry": { "type": "Point", "coordinates": [ 10.970234800000247, 46.642899400000012 ] } },
{ "type": "Feature", "properties": { "lat": 46.61, "lon": 10.88, "st_name": "Tarsch", "st_id": "113" }, "geometry": { "type": "Point", "coordinates": [ 10.88241660000018, 46.6126111 ] } },
{ "type": "Feature", "properties": { "lat": 46.63, "lon": 10.91, "st_name": "Galsaun", "st_id": "114" }, "geometry": { "type": "Point", "coordinates": [ 10.909123400000199, 46.6300776 ] } },
{ "type": "Feature", "properties": { "lat": 46.63, "lon": 10.93, "st_name": "Kastelbell_2", "st_id": "115" }, "geometry": { "type": "Point", "coordinates": [ 10.930888800000213, 46.6341666 ] } },
{ "type": "Feature", "properties": { "lat": 46.63, "lon": 10.93, "st_name": "Kastelbell_1", "st_id": "116" }, "geometry": { "type": "Point", "coordinates": [ 10.930130400000214, 46.6268506 ] } },
{ "type": "Feature", "properties": { "lat": 46.64, "lon": 11.0, "st_name": "Naturns_1", "st_id": "117" }, "geometry": { "type": "Point", "coordinates": [ 11.002777700000276, 46.6437499 ] } },
{ "type": "Feature", "properties": { "lat": 46.66, "lon": 11.03, "st_name": "Naturns_2", "st_id": "118" }, "geometry": { "type": "Point", "coordinates": [ 11.030080300000304, 46.6554235 ] } },
{ "type": "Feature", "properties": { "lat": 46.68, "lon": 11.09, "st_name": "Partschins", "st_id": "119" }, "geometry": { "type": "Point", "coordinates": [ 11.087055500000364, 46.6843333 ] } },
{ "type": "Feature", "properties": { "lat": 46.64, "lon": 10.96, "st_name": "Pedrui", "st_id": "120" }, "geometry": { "type": "Point", "coordinates": [ 10.957500000000234, 46.640388800000011 ] } },
{ "type": "Feature", "properties": { "lat": 46.65, "lon": 11.04, "st_name": "Plaus_1", "st_id": "121" }, "geometry": { "type": "Point", "coordinates": [ 11.04433330000032, 46.65286110000001 ] } },
{ "type": "Feature", "properties": { "lat": 46.65, "lon": 11.03, "st_name": "Plaus_2", "st_id": "122" }, "geometry": { "type": "Point", "coordinates": [ 11.025863800000296, 46.6507286 ] } },
{ "type": "Feature", "properties": { "lat": 46.67, "lon": 11.06, "st_name": "Rabland", "st_id": "123" }, "geometry": { "type": "Point", "coordinates": [ 11.055169700000327, 46.6657985 ] } },
{ "type": "Feature", "properties": { "lat": 46.64, "lon": 10.97, "st_name": "Staben_2", "st_id": "124" }, "geometry": { "type": "Point", "coordinates": [ 10.971611100000247, 46.6449444 ] } },
{ "type": "Feature", "properties": { "lat": 46.68, "lon": 11.08, "st_name": "Toell", "st_id": "125" }, "geometry": { "type": "Point", "coordinates": [ 11.082111100000359, 46.6788055 ] } },
{ "type": "Feature", "properties": { "lat": 46.64, "lon": 10.95, "st_name": "Tschars", "st_id": "126" }, "geometry": { "type": "Point", "coordinates": [ 10.949517400000227, 46.6371648 ] } },
{ "type": "Feature", "properties": { "lat": 46.68, "lon": 11.63, "st_name": "Albeins_1", "st_id": "128" }, "geometry": { "type": "Point", "coordinates": [ 11.633388800001855, 46.681222200000036 ] } },
{ "type": "Feature", "properties": { "lat": 46.68, "lon": 11.63, "st_name": "Albeins_2", "st_id": "129" }, "geometry": { "type": "Point", "coordinates": [ 11.632805500001854, 46.675083300000011 ] } },
{ "type": "Feature", "properties": { "lat": 46.73, "lon": 11.65, "st_name": "Brixen", "st_id": "130" }, "geometry": { "type": "Point", "coordinates": [ 11.652388800001935, 46.726083300000028 ] } },
{ "type": "Feature", "properties": { "lat": 46.65, "lon": 11.59, "st_name": "Klausen", "st_id": "131" }, "geometry": { "type": "Point", "coordinates": [ 11.586527700001648, 46.651277700000023 ] } },
{ "type": "Feature", "properties": { "lat": 46.77, "lon": 11.65, "st_name": "Ladestatt", "st_id": "132" }, "geometry": { "type": "Point", "coordinates": [ 11.651861100001913, 46.77011110000003 ] } },
{ "type": "Feature", "properties": { "lat": 46.75, "lon": 11.68, "st_name": "Natz", "st_id": "133" }, "geometry": { "type": "Point", "coordinates": [ 11.678250000002059, 46.748861100000028 ] } },
{ "type": "Feature", "properties": { "lat": 46.73, "lon": 11.66, "st_name": "Neustift", "st_id": "134" }, "geometry": { "type": "Point", "coordinates": [ 11.655972200001948, 46.733555500000023 ] } },
{ "type": "Feature", "properties": { "lat": 46.75, "lon": 11.66, "st_name": "Raas", "st_id": "135" }, "geometry": { "type": "Point", "coordinates": [ 11.655916600001939, 46.751027700000023 ] } },
{ "type": "Feature", "properties": { "lat": 46.67, "lon": 11.62, "st_name": "Schrambach", "st_id": "136" }, "geometry": { "type": "Point", "coordinates": [ 11.617194400001782, 46.669527700000025 ] } },
{ "type": "Feature", "properties": { "lat": 46.52, "lon": 11.47, "st_name": "Atzwang", "st_id": "137" }, "geometry": { "type": "Point", "coordinates": [ 11.474361100001239, 46.519444400000012 ] } },
{ "type": "Feature", "properties": { "lat": 46.57, "lon": 11.52, "st_name": "Kollmann", "st_id": "138" }, "geometry": { "type": "Point", "coordinates": [ 11.520666600001396, 46.573083300000022 ] } },
{ "type": "Feature", "properties": { "lat": 46.55, "lon": 11.52, "st_name": "St.Oswald", "st_id": "139" }, "geometry": { "type": "Point", "coordinates": [ 11.521555500001405, 46.551666600000019 ] } },
{ "type": "Feature", "properties": { "lat": 46.53, "lon": 11.5, "st_name": "Voels", "st_id": "140" }, "geometry": { "type": "Point", "coordinates": [ 11.502166600001338, 46.530027700000012 ] } },
{ "type": "Feature", "properties": { "lat": 46.35, "lon": 11.28, "st_name": "Auer_2", "st_id": "160" }, "geometry": { "type": "Point", "coordinates": [ 11.28297220000073, 46.345555500000025 ] } },
{ "type": "Feature", "properties": { "lat": 46.36, "lon": 11.26, "st_name": "Kaltern_1", "st_id": "161" }, "geometry": { "type": "Point", "coordinates": [ 11.264138800000687, 46.35505550000002 ] } },
{ "type": "Feature", "properties": { "lat": 46.34, "lon": 11.27, "st_name": "Kaltern_2", "st_id": "162" }, "geometry": { "type": "Point", "coordinates": [ 11.270388800000703, 46.3423055 ] } },
{ "type": "Feature", "properties": { "lat": 46.3, "lon": 11.23, "st_name": "Kurtatsch_1", "st_id": "163" }, "geometry": { "type": "Point", "coordinates": [ 11.229361100000624, 46.2974166 ] } },
{ "type": "Feature", "properties": { "lat": 46.3, "lon": 11.2, "st_name": "Penon", "st_id": "164" }, "geometry": { "type": "Point", "coordinates": [ 11.203114900000571, 46.301962 ] } },
{ "type": "Feature", "properties": { "lat": 46.27, "lon": 11.23, "st_name": "Kurtinig", "st_id": "165" }, "geometry": { "type": "Point", "coordinates": [ 11.229111100000628, 46.271444400000014 ] } },
{ "type": "Feature", "properties": { "lat": 46.27, "lon": 11.24, "st_name": "Laag", "st_id": "166" }, "geometry": { "type": "Point", "coordinates": [ 11.236361100000641, 46.272194400000011 ] } },
{ "type": "Feature", "properties": { "lat": 46.29, "lon": 11.23, "st_name": "Margreid", "st_id": "167" }, "geometry": { "type": "Point", "coordinates": [ 11.229333300000626, 46.286499900000017 ] } },
{ "type": "Feature", "properties": { "lat": 46.33, "lon": 11.27, "st_name": "Neumarkt_Etsch", "st_id": "168" }, "geometry": { "type": "Point", "coordinates": [ 11.267111100000696, 46.3263611 ] } },
{ "type": "Feature", "properties": { "lat": 46.3, "lon": 11.26, "st_name": "Neumarkt_Stiermoos", "st_id": "169" }, "geometry": { "type": "Point", "coordinates": [ 11.26266660000069, 46.304777700000017 ] } },
{ "type": "Feature", "properties": { "lat": 46.32, "lon": 11.29, "st_name": "Pinzon", "st_id": "170" }, "geometry": { "type": "Point", "coordinates": [ 11.293861100000758, 46.3239166 ] } },
{ "type": "Feature", "properties": { "lat": 46.24, "lon": 11.21, "st_name": "Salurn_1", "st_id": "171" }, "geometry": { "type": "Point", "coordinates": [ 11.205166600000586, 46.2415833 ] } },
{ "type": "Feature", "properties": { "lat": 46.25, "lon": 11.23, "st_name": "Salurn_2", "st_id": "172" }, "geometry": { "type": "Point", "coordinates": [ 11.227583300000624, 46.24725 ] } },
{ "type": "Feature", "properties": { "lat": 46.35, "lon": 11.25, "st_name": "Tramin_Putznai", "st_id": "173" }, "geometry": { "type": "Point", "coordinates": [ 11.24641660000065, 46.3484444 ] } },
{ "type": "Feature", "properties": { "lat": 46.33, "lon": 11.24, "st_name": "Tramin_13er", "st_id": "174" }, "geometry": { "type": "Point", "coordinates": [ 11.244638800000651, 46.329416600000016 ] } },
{ "type": "Feature", "properties": { "lat": 46.31, "lon": 11.24, "st_name": "Tramin_24er", "st_id": "175" }, "geometry": { "type": "Point", "coordinates": [ 11.24344440000065, 46.308638800000011 ] } },
{ "type": "Feature", "properties": { "lat": 46.32, "lon": 11.28, "st_name": "Vill", "st_id": "176" }, "geometry": { "type": "Point", "coordinates": [ 11.280500000000727, 46.3248888 ] } },
{ "type": "Feature", "properties": { "lat": 46.62, "lon": 11.15, "st_name": "Lana_6", "st_id": "60" }, "geometry": { "type": "Point", "coordinates": [ 11.151745300000458, 46.616689100000016 ] } },
{ "type": "Feature", "properties": { "lat": 46.51, "lon": 11.44, "st_name": "Ritten", "st_id": "25" }, "geometry": { "type": "Point", "coordinates": [ 11.442805500001135, 46.510527700000011 ] } },
{ "type": "Feature", "properties": { "lat": 46.32, "lon": 11.23, "st_name": "Kurtatsch_3", "st_id": "177" }, "geometry": { "type": "Point", "coordinates": [ 11.232039900000627, 46.318733 ] } },
{ "type": "Feature", "properties": { "lat": 46.5, "lon": 11.44, "st_name": "St.Justina", "st_id": "26" }, "geometry": { "type": "Point", "coordinates": [ 11.441805500001133, 46.499277700000015 ] } },
{ "type": "Feature", "properties": { "lat": 46.54, "lon": 11.25, "st_name": "Terlan_5", "st_id": "27" }, "geometry": { "type": "Point", "coordinates": [ 11.253444400000642, 46.5350833 ] } },
{ "type": "Feature", "properties": { "lat": 46.63, "lon": 10.91, "st_name": "Marein", "st_id": "127" }, "geometry": { "type": "Point", "coordinates": [ 10.907245800000197, 46.6258043 ] } },
{ "type": "Feature", "properties": { "lat": 46.67, "lon": 11.13, "st_name": "Marling_2", "st_id": "50" }, "geometry": { "type": "Point", "coordinates": [ 11.131961300000423, 46.6704073 ] } },
{ "type": "Feature", "properties": { "lat": 46.66, "lon": 11.04, "st_name": "Naturns_3", "st_id": "86" }, "geometry": { "type": "Point", "coordinates": [ 11.038566800000311, 46.6633319 ] } },
{ "type": "Feature", "properties": { "lat": 46.56, "lon": 11.17, "st_name": "Tisens", "st_id": "28" }, "geometry": { "type": "Point", "coordinates": [ 11.171388800000493, 46.5644444 ] } },
{ "type": "Feature", "properties": { "lat": 46.68, "lon": 10.56, "st_name": "Tartsch", "st_id": "178" }, "geometry": { "type": "Point", "coordinates": [ 10.55974960000005, 46.684452300000011 ] } },
{ "type": "Feature", "properties": { "lat": 46.66, "lon": 10.56, "st_name": "Glurns", "st_id": "179" }, "geometry": { "type": "Point", "coordinates": [ 10.561230100000049, 46.6648413 ] } },
{ "type": "Feature", "properties": { "lat": 46.69, "lon": 10.53, "st_name": "Mals", "st_id": "180" }, "geometry": { "type": "Point", "coordinates": [ 10.53164, 46.6897146 ] } },
{ "type": "Feature", "properties": { "lat": 46.62, "lon": 10.62, "st_name": "Tschengls_2", "st_id": "182" }, "geometry": { "type": "Point", "coordinates": [ 10.623049700000061, 46.618583 ] } },
{ "type": "Feature", "properties": { "lat": 46.62, "lon": 11.15, "st_name": "Lana_6_NEU", "st_id": "52" }, "geometry": { "type": "Point", "coordinates": [ 11.151702400000456, 46.6164275 ] } },
{ "type": "Feature", "properties": { "lat": 46.79, "lon": 11.24, "st_name": "St._Leonhard_in_P.", "st_id": "57" }, "geometry": { "type": "Point", "coordinates": [ 11.238005100000581, 46.7922297 ] } },
{ "type": "Feature", "properties": { "lat": 46.61, "lon": 11.53, "st_name": "Barbian", "st_id": "29" }, "geometry": { "type": "Point", "coordinates": [ 11.52980800000142, 46.614308800000025 ] } },
{ "type": "Feature", "properties": { "lat": 46.65, "lon": 11.05, "st_name": "Naturns_4", "st_id": "142" }, "geometry": { "type": "Point", "coordinates": [ 11.051065900000324, 46.6549153 ] } }
]
}
